{"type": "FeatureCollection", "features": [{"type": "Feature", "geometry": {"type": "Point", "coordinates": [-70.680622, -33.452236]}, "properties": {"name": "Estacion Alameda"}}, {"type": "Feature", "geometry": {"type": "Point", "coordinates": [-70.680622, -33.477086]}, "properties": {"name": "Estacion Lo Valledor"}}, {"type": "Feature", "geometry": {"type": "Point", "coordinates": [-70.6818, -33.493075]}, "properties": {"name": "Estacion Pedro Aguirre Cerda"}}, {"type": "Feature", "geometry": {"type": "Point", "coordinates": [-70.685794, -33.51415]}, "properties": {"name": "Estacion Lo Espejo"}}, {"type": "Feature", "geometry": {"type": "Point", "coordinates": [-70.698397, -33.5732]}, "properties": {"name": "Estacion Lo Blanco"}}, {"type": "Feature", "geometry": {"type": "Point", "coordinates": [-70.698472, -33.586417]}, "properties": {"name": "Estacion Freire"}}, {"type": "Feature", "geometry": {"type": "Point", "coordinates": [-70.697878, -33.594486]}, "properties": {"name": "Estacion San Bernardo"}}, {"type": "Feature", "geometry": {"type": "Point", "coordinates": [-70.696978, -33.606847]}, "properties": {"name": "Estacion Maestranza"}}, {"type": "Feature", "geometry": {"type": "Point", "coordinates": [-70.700781, -33.623644]}, "properties": {"name": "Estacion Cinco Pinos"}}, {"type": "Feature", "geometry": {"type": "Point", "coordinates": [-70.704797, -33.632758]}, "properties": {"name": "Estacion Nos"}}]}